국가명,국가코드(ISO 2자리 코드),겸임(관할),재외공관 유형,재외공관명,재외공관 위도,재외공관 경도,전화번호,영사콜센터번호,무료전화번호,긴급전화번호,재외공관주소
가나,GH,일반,대사관,주 가나 대한민국 대사관,5.575495,-0.185161,(233)302-771-705,(82)2-3210-0404,080-020-0219,(233)244-321-858,"No.10, Fifth Avenue Extension, Cantonments, P.O.Box GP 13700, Accra, Ghana,"
가봉,GA,일반,대사관,주 가봉 대한민국 대사관,0.477587266,9.393928461,(241)6530-1900,(82)2-3210-0404,080-020-0219,(241)7750-7822,"B.P.2620, Libreville, Gabon,"
가이아나,GY,겸임,대사관,주 베네수엘라 대한민국 대사관,10.491337,-66.861998,(58)212-954-1270,(82)2-3210-0404,080-020-0219,(58)412-309-3247,"Av. Francisco de Miranda, Centro Lido, Torre B, Piso 9, Ofic. 91-92-B, El Rosal, Caracas, Venezuela,"
감비아,GM,겸임,대사관,주 세네갈 대한민국 대사관,14.695506,-17.467318,(221)33-824-06-72,(82)2-3210-0404,080-020-0219,(221)77-639-5109,"Ambassade de la Republique de Coree, Villa Hamoudy, Rue Aime Cesaire, Fann Residence, B.P.5850, Dakar, Senegal,"
과테말라,GT,일반,대사관,주 과테말라 대한민국 대사관,14.587905,-90.513744,(502)2382-4051,(82)2-3210-0404,080-020-0219,(502)3368-9333,"5a. Ave. 5-55, Zona 14, Edificio Europlaza Torre 3, Nivel 7, Ciudad de Guatemala, Guatemala C.A,"
그레나다,GD,겸임,대사관,주 트리니다드토바고 대한민국 대사관,10.669715,-61.522711,(1)868-622-9081,(82)2-3210-0404,080-020-0219,(1)868-316-5672,"30# Elizabth street, St.Clair, Port of Spain, Trinidad and Tobago,"
그리스,GR,일반,대사관,주 그리스 대한민국 대사관,37.984663,23.760519,(30)210-698-4080,(82)2-3210-0404,080-020-0219,(30)694-611-7098,"Embassy of the Republic of Korea , Athens Tower A  building , 19th Floor, 2-4 Messogion Avenue, 115 27, Athens, Greece,"
기니,GN,겸임,대사관,주 세네갈 대한민국 대사관,14.695506,-17.467318,(221)33-824-06-72,(82)2-3210-0404,080-020-0219,(221)77-639-5109,"Ambassade de la Republique de Coree, Villa Hamoudy, Rue Aime Cesaire, Fann Residence, B.P.5850, Dakar, Senegal,"
기니비사우,GW,겸임,대사관,주 세네갈 대한민국 대사관,14.695506,-17.467318,(221)33-824-06-72,(82)2-3210-0404,080-020-0219,(221)77-639-5109,"Ambassade de la Republique de Coree, Villa Hamoudy, Rue Aime Cesaire, Fann Residence, B.P.5850, Dakar, Senegal,"
나미비아,NA,겸임,대사관,주 앙골라 대한민국 대사관,-8.920868,13.202023,(244)222-006-067,(82)2-3210-0404,080-020-0219,(244)938-880-573,"Condominio Zenith, Torre 1, 7&ordm; Andar, Via AL 16, Luanda, Angola,"
나우루,NR,겸임,대사관,주 피지 대한민국 대사관,-18.140068,178.423532,(679)330-0977,(82)2-3210-0404,080-020-0219,(679)992-2186,"8th Fl., Vanua House, Victoria Parade, Suva, Fiji,"
나이지리아,NG,일반,대사관,주 나이지리아 대한민국 대사관,9.084108,7.49347,(234)810-389-0991,(82)2-3210-0404,080-020-0219,(234)809-998-1726,"No.9 Ovia cresent, Off Pope John Paul Ⅱ street, Off Gana street, Maitama, Abuja,"
나이지리아,NG,일반,분관,주 라고스 대한민국 분관,6.459111,3.448935,(234)1-271-6295,(82)2-3210-0404,080-020-0219,(234)906-877-4619,"Plot 10A&amp;B Layi Ajayi Bembe Street, Parkview Estate, Ikoyi, Lagos,"
남수단,SS,겸임,대사관,주 우간다 대한민국 대사관,0.320245,32.583,(256)414-500-197,(82)2-3210-0404,080-020-0219,(256)774-478-376,"Plot 14 Ternan Avenue, Kampala, Uganda,"
남아프리카공화국,ZA,일반,대사관,주 남아프리카공화국 대한민국 대사관,-25.773293,28.226605,(27)12-460-2508,(82)2-3210-0404,080-020-0219,(27)66-332-5897,"265 Melk Street, Nieuw Muckleneuk, Pretoria 0181, South Africa,"
네덜란드,NL,일반,대사관,주 네덜란드 대한민국 대사관,52.093582,4.28729,(31)70-740-0214,(82)2-3210-0404,080-020-0219,(31)64-264-8412,"Verlengde Tolweg 8, 2517 JV The Hague, Netherlands,"
네팔,NP,일반,대사관,주 네팔 대한민국 대사관,27.694457,85.292486,(977)1-427-0172,(82)2-3210-0404,080-020-0219,(977)98510-33178,"P.O.Box 1058 Ravibhawan, Kathmandu, Nepal,"
노르웨이,NO,일반,대사관,주 노르웨이 대한민국 대사관,59.919738,10.724114,(47)2254-7090,(82)2-3210-0404,080-020-0219,(47)9026-3544,"Inkognitogata 3 0258 Oslo Norway,"
뉴질랜드,NZ,일반,대사관,주 뉴질랜드 대한민국 대사관,-41.28572,174.777313,(64)4-473-9073,(82)2-3210-0404,080-020-0219,(64)21-0269-3271,"11th Floor, Harbour Tower, 2 Hunter Street, Wellington 6011, New Zealand,"
뉴질랜드,NZ,일반,분관,주 오클랜드 대한민국 분관,-36.853372,174.763702,(64)9-379-0818,(82)2-3210-0404,080-020-0219,(64)27-646-0404,"Level 12, Tower 1, 205 Queen Street, Auckland Central , New Zealand,"
니우에,NU,관할,대사관,주 뉴질랜드 대한민국 대사관,-41.28572,174.777313,(64)4-473-9073,(82)2-3210-0404,080-020-0219,(64)21-0269-3271,"11th Floor, Harbour Tower, 2 Hunter Street, Wellington 6011, New Zealand,"
니제르,NE,겸임,대사관,주 코트디부아르 대한민국 대사관,5.331987,-3.996877,(225)2248-6701,(82)2-3210-0404,080-020-0219,(225)8827-3480,"01BP 3950 Abidjan 01, Rue Sainte Marie Lot 18-19, Cocody Sud, Abidjan, Cote d&rsquo;Ivoire,"
니카라과,NI,일반,대사관,주 니카라과 대한민국 대사관,12.134636,-86.28535,(505)2267-6777,(82)2-3210-0404,080-020-0219,(505)8855-0037,"Edificio Invercasa Torre III, Frente al Hospital Monte Espana Modulo 5A &amp;5B,"
덴마크,DK,일반,대사관,주 덴마크 대한민국 대사관,55.731206,12.573892,(45)3946-0400,(82)2-3210-0404,080-020-0219,(45)2521-7461,"Svanemoellevej 104, 2900 Hellerup, Denmark,"
도미니카공화국,DO,일반,대사관,주 도미니카공화국 대한민국 대사관,18.45281,-69.960545,(1-809)482-6505,(82)2-3210-0404,080-020-0219,(1-809)383-9091,"Torre Empresarial Forum, Piso 14, Avenida 27 de Febrero No.495, El Millon, Santo Domingo, Republica Dominicana,"
도미니카연방,DM,겸임,대사관,주 도미니카공화국 대한민국 대사관,18.45281,-69.960545,(1-809)482-6505,(82)2-3210-0404,080-020-0219,(1-809)383-9091,"Torre Empresarial Forum, Piso 14, Avenida 27 de Febrero No.495, El Millon, Santo Domingo, Republica Dominicana,"
독일,DE,일반,대사관 본분관,주 독일 연방공화국 대한민국 대사관 본분관,50.69869,7.1566,(49)228-943-790,(82)2-3210-0404,080-020-0219,(49)170-337-9105,"Godesberger Allee 142-148, 53175 Bonn, Germany,"
독일,DE,일반,총영사관,주 프랑크푸르트 대한민국 총영사관,50.07833,8.62353,(49)69-956-7520,(82)2-3210-0404,080-020-0219,(49)173-363-4854,"Generalkonsulat der Republik Korea, Lyoner Str. 34, 60528 Frankfurt am Main, Germany,"
독일,DE,일반,총영사관,주 함부르크 대한민국 총영사관,53.552942,9.98393,(49)40-650-677-600,(82)2-3210-0404,080-020-0219,(49)170-340-1498,"Kaiser-Wilhelm-Str 9, 20355 Hamburg. Germany,"
독일,DE,일반,대사관,주 독일 대한민국 대사관,52.50901,13.346508,(49)30-260-650,(82)2-3210-0404,080-020-0219,(49)173-407-6943,"Stuelerstr 8/10, 10787, Berlin, Germany,"
동티모르,TL,일반,대사관,주 동티모르 대한민국 대사관,-8.548387,125.561151,(670)332-1635,(82)2-3210-0404,080-020-0219,(670)7723-5068,"P.O.Box 230, Avenida de Portugal, Motael, Dili, Timor-Leste,"
라오스,LA,일반,대사관,주 라오스 대한민국 대사관,17.9701505,102.5968525,(856)21-255-770,(82)2-3210-0404,080-020-0219,(856)20-5839-0080,"20 Samsenthay Road, Noongduangnuea Village, Sikhottabong District, Vientiane, Lao PDR,"
라이베리아,LR,겸임,대사관,주 나이지리아 대한민국 대사관,9.084108,7.49347,(234)810-389-0991,(82)2-3210-0404,080-020-0219,(234)809-998-1726,"No.9 Ovia cresent, Off Pope John Paul Ⅱ street, Off Gana street, Maitama, Abuja,"
라트비아,LV,일반,대사관,주 라트비아 대한민국 대사관,56.9560582,24.1096265,(371)6732-4274,(82)2-3210-0404,080-020-0219,(371)2573-5627,"Jura Alunana iela 2-3, Riga, Latvia,"
러시아,RU,일반,대사관,주 러시아 대한민국 대사관,55.737956,37.57501,(7)495-783-2727,(82)2-3210-0404,080-020-0219,(7)495-783-2727,"St. Plyushchikha 56 bldg 1, Moscow,"
러시아,RU,일반,총영사관,주 이르쿠츠크 대한민국 총영사관,52.282376,104.273833,(7)3952-250-301,(82)2-3210-0404,080-020-0219,(7)964-650-9403,"3rd. Floor, 44, Gegarin Boulevard, lrkustk Russia,"
러시아,RU,일반,총영사관 댈러스 출장소,주 블라디보스톡 대한민국 총영사관 유즈노사할린스크 출장소,46.950357,142.731927,(7)4242-462-430,(82)2-3210-0404,080-020-0219,(7)984-132-8098,"283 Bm Lennin St., Yuzhno-Sakhalinsk, Russia,"
러시아,RU,일반,총영사관,주 상트페테르부르크 대한민국 총영사관,59.939155,30.358574,(7)812-448-1909,(82)2-3210-0404,080-020-0219,(7)905-255-5496,"191104 Nekrasova Street Bldg. 32-A, Saint Petersburg, Russia,"
러시아,RU,일반,총영사관,주 블라디보스톡 대한민국 총영사관,43.122694,131.880936,(7)423-240-2222,(82)2-3210-0404,080-020-0219,(7)914-072-8347,"Pologaya Street 19, Vladivostok, 690091, Russia,"
레바논,LB,일반,대사관,주 레바논 대한민국 대사관,33.84007,35.547211,(961)5-922-846,(82)2-3210-0404,080-020-0219,(961)81-007-491,"Bldg.4, Elias Sarkis Road 1209, Yarzeh, Baabda, Lebanon,"
레소토,LS,겸임,대사관,주 남아프리카공화국 대한민국 대사관,-25.773293,28.226605,(27)12-460-2508,(82)2-3210-0404,080-020-0219,(27)66-332-5897,"265 Melk Street, Nieuw Muckleneuk, Pretoria 0181, South Africa,"
루마니아,RO,일반,대사관,주 루마니아 대한민국 대사관,44.47797222,26.10472222,(40)21-230-7198,(82)2-3210-0404,080-020-0219,(40)741-185-558,"Sky Tower Building S.R.L, Calea Floreasca, No.246C. Etaj 33, Sector 1, Bucharest, Romania,"
룩셈부르크,LU,겸임,대사관,주 벨기에 유럽연합 대한민국 대사관,50.796035,4.402728,(32)2-675-5777,(82)2-3210-0404,080-020-0219,(32)476-45-75-06,"Chaussee de la Hulpe 175, 1170 Brussels, Belgium,"
르완다,RW,일반,대사관,주 르완다 대한민국 대사관,-1.938502,30.10031,(250)252-577-577,(82)2-3210-0404,080-020-0219,(250)780-493-746,"P.O. Box 6404, 34 KG 13 Ave(Golf Course Road), Nyarutarama, Kigali, Rwanda,"
리비아,LY,일반,대사관,주 리비아 대한민국 대사관,32.866323,13.091041,(216)71-274-759,(82)2-3210-0404,080-020-0219,(216)22-575-924,"P. O. Box 4781/5160, Abounawas Area, Gargaresh St., Tripoli, Libya,"
리투아니아,LT,겸임,대사관,주 폴란드 대한민국 대사관,52.21676,21.041807,(48)22-559-2900,(82)2-3210-0404,080-020-0219,(48)887-46-0600,"ul. Szwolezerow 6, 00-464, Warsaw, Poland,"
리히텐슈타인,LI,겸임,대사관,주 스위스 대한민국 대사관,46.936967,7.46239,(41)31-356-2444,(82)2-3210-0404,080-020-0219,(41)79-897-4086,"Kalcheggweg 38, P.O.Box 301, 3006 Bern, Switzerland,"
마다가스카르,MG,일반,대사관,주 마다가스카르 대한민국 대사관,-18.884792,47.522183,(261)20-222-2933,(82)2-3210-0404,080-020-0219,(261)32-781-0874,"Immeuble Fitaratra-9eme Etage Nord, Ankorondrano, 101 Antananarivo, Madagascar,"
마셜제도,MH,겸임,대사관,주 피지 대한민국 대사관,-18.140068,178.423532,(679)330-0977,(82)2-3210-0404,080-020-0219,(679)992-2186,"8th Fl., Vanua House, Victoria Parade, Suva, Fiji,"
마이크로네시아연방,FM,겸임,대사관,주 피지 대한민국 대사관,-18.140068,178.423532,(679)330-0977,(82)2-3210-0404,080-020-0219,(679)992-2186,"8th Fl., Vanua House, Victoria Parade, Suva, Fiji,"
말라위,MW,겸임,대사관,주 짐바브웨 대한민국 대사관,-17.831424,31.052597,(263-242)756-541,(82)2-3210-0404,080-020-0219,(263)782-840-787,"3rd floor(Bridge-Red light side), Eastgate Building, 3rd Street/Robert Mugabe Rolad, Harare, Zimbavwe(P.O.Box 4970),"
말레이시아,MY,일반,대사관,주 말레이시아 대한민국 대사관,3.163,101.738,(60)3-4251-2336,(82)2-3210-0404,080-020-0219,(60)17-623-8343,"No. 9 &amp; 11, Jalan Nipah, Off Jalan Ampang, 55000 Kuala Lumpur, Malaysia,"
말리,ML,겸임,대사관,주 세네갈 대한민국 대사관,14.695506,-17.467318,(221)33-824-06-72,(82)2-3210-0404,080-020-0219,(221)77-639-5109,"Ambassade de la Republique de Coree, Villa Hamoudy, Rue Aime Cesaire, Fann Residence, B.P.5850, Dakar, Senegal,"
멕시코,MX,일반,대사관,주 멕시코 대한민국 대사관,19.416351,-99.213946,(52)55-5202-9866,(82)2-3210-0404,080-020-0219,(52)55-5437-8587,"Lope Diaz de Armendariz No.110, Col. Lomas Virreyes, C.P. 11000, Mexico, D.F.,"
모나코,MC,겸임,대사관,주 프랑스 대한민국 대사관,48.858052,2.316395,(33)1-4753-0101,(82)2-3210-0404,080-020-0219,(33)6-8028-5396,"125 rue de Grenelle 75007 Paris,"
모로코,MA,일반,대사관,주 모로코 대한민국 대사관,33.978091,-6.840522,(212)537-75-1767,(82)2-3210-0404,080-020-0219,(212)66-277-2408,"41 Av. Mehdi Ben Barka, Souissi, Rabat, Morocco,"
모리셔스,MU,겸임,대사관,주 마다가스카르 대한민국 대사관,-18.884792,47.522183,(261)20-222-2933,(82)2-3210-0404,080-020-0219,(261)32-781-0874,"Immeuble Fitaratra-9eme Etage Nord, Ankorondrano, 101 Antananarivo, Madagascar,"
모리타니아,MR,겸임,대사관,주 모로코 대한민국 대사관,33.978091,-6.840522,(212)537-75-1767,(82)2-3210-0404,080-020-0219,(212)66-277-2408,"41 Av. Mehdi Ben Barka, Souissi, Rabat, Morocco,"
모잠비크,MZ,일반,대사관,주 모잠비크공화국 대한민국 대사관,-25.957806,32.602585,(258)21-495-625,(82)2-3210-0404,080-020-0219,(258)84-518-1272,"138, Rua D. Maria II , Maputo, Mozambique,"
몬테네그로,ME,겸임,대사관,주 세르비아 대한민국 대사관,44.78293,20.45104,(381)11-3674-225,(82)2-3210-0404,080-020-0219,(381)63-108-1397,"MILOSA SAVCICA 4, 11000 Belgrade, Serbia,"
몰도바,MD,겸임,대사관,주 우크라이나 대한민국 대사관,50.453521,30.51192,(380)44-246-3759,(82)2-3210-0404,080-020-0219,(380)95-119-0404,"12, Striletska St., 01001, Kyiv, Ukraine,"
몰디브,MV,겸임,대사관,주 스리랑카 대한민국 대사관,6.918141,79.847301,(94)11-269-9036,(82)2-3210-0404,080-020-0219,(94)77-332-5676,"No. 98, Dharmapala Mawatha, Colombo 7, Sri Lanka,"
몰타,MT,겸임,대사관,주 이탈리아 대한민국 대사관,41.927196,12.485185,(39)06-802461,(82)2-3210-0404,080-020-0219,(39)335-185-0499,"Via Barnaba Oriani n. 30, Roma, 00197 Italy,"
몽골,MN,일반,대사관,주 몽골 대한민국 대사관,47.914228,106.927335,(976)7007-1020,(82)2-3210-0404,080-020-0219,(976)9911-4119,"Mahatma Gandhi street-39, Khan-Uul district-15, Ulaanbaatar-17011, Mongolia,"
미국,US,일반,총영사관,주 샌프란시스코 대한민국 총영사관,37.778723,-122.42004,(1)415-921-2251,(82)2-3210-0404,080-020-0219,(1)415-265-4859,"3500 Clay street San Francisco, CA 94118, U.S.A,"
미국,US,일반,총영사관,주 시애틀 대한민국 총영사관,47.614745,-122.339339,(1)206-441-1011,(82)2-3210-0404,080-020-0219,(1)206-947-8293,"115 W Mercer St. Seattle, WA 98119,"
미국,US,일반,대사관,주 미국 대한민국 대사관,38.91209,-77.051264,(1)202-939-5600,(82)2-3210-0404,080-020-0219,(1)202-939-5653,"2320 Massachusetts Avenue, N.W., Washington, D.C. 20008, U.S.A.,"
미국,US,일반,출장소,주 앵커리지 대한민국 출장소,61.142386,-149.867276,(1)907-339-7955,(82)2-3210-0404,080-020-0219,(1)907-331-7135,"800 E. Dimond Blvd, Suite 3-695, Anchorage, AK 99515, U.S.A.,"
미국,US,일반,총영사관,주 애틀랜타 대한민국 총영사관,33.76020746,-84.38661598,(1)404-522-1611,(82)2-3210-0404,080-020-0219,(1)404-295-2807,"229 Peachtree St., Suite 2100, International tower, Atlanta, GA 30303. USA,"
미국,US,일반,총영사관,주 보스턴 대한민국 총영사관,42.357228,-71.186603,(1)617-641-2830,(82)2-3210-0404,080-020-0219,(1)617-264-0404,"300 Washington Street, 2nd Floor. Newton, MA 02458, U.S.A.,"
미국,US,일반,총영사관,주 시카고 대한민국 총영사관,41.895927,-87.612389,(1)312-822-9485,(82)2-3210-0404,080-020-0219,(1)312-405-4425,"NBC Tower Suite 2700, 455 North Cityfront Plaza Drive, Chicago, Illinois 60611 U.S.A.,"
미국,US,일반,총영사관 댈러스 출장소,주 휴스턴 대한민국 총영사관 댈러스 출장소,32.93664,-96.822985,(1)972-701-0180,(82)2-3210-0404,080-020-0219,(1)214-796-3959,"14001 N Dallas Parkway Ste.450, Dallas, TX 75240,"
미국,US,일반,출장소,주 하갓냐 대한민국 출장소,13.498961,144.777238,(1)671-647-6488,(82)2-3210-0404,080-020-0219,(1)671-688-5886,"153 Zoilo Street, Tamuning, Guam 96913,"
미국,US,일반,총영사관,주 호놀룰루 대한민국 총영사관,21.334952,-157.84187,(1)808-595-6109,(82)2-3210-0404,080-020-0219,(1)808-265-9349,"2756 Pali Highway Honolulu, Hawaii 96817, U.S.A,"
미국,US,일반,총영사관,주 휴스턴 대한민국 총영사관,29.745657,-95.462634,(1)713-961-0186,(82)2-3210-0404,080-020-0219,(1)281-785-4231,"1990 Post Oak Blvd. Suite 1250, Houston, TX 77056,"
미국,US,일반,총영사관,주 로스앤젤레스 대한민국 총영사관,34.062062,-118.292648,(1)213-385-9300,(82)2-3210-0404,080-020-0219,(1)213-700-1147,"Korean Consulate General in Los Angeles 3243 Wilshire Blvd, Los Angeles, CA 90010,"
미국,US,일반,총영사관,주 뉴욕 대한민국 총영사관,40.761975,-73.970658,(1)646-674-6000,(82)2-3210-0404,080-020-0219,(1)646-965-3639,"460 Park Ave. New York, NY10022,"
미얀마,MM,일반,대사관,주 미얀마연방공화국 대한민국 대사관,16.823726,96.146075,(95)1-527-142,(82)2-3210-0404,080-020-0219,(95)9-4211-58030,"No.97 University Avenue, Bahan Township, Yangon, Union of Myanmar,"
바누아투,VU,겸임,대사관,주 파푸아뉴기니독립국 대한민국 대사관,-9.476991,147.150749,(675)321-5822,(82)2-3210-0404,080-020-0219,(675)7394-6778,"P.O.Box 381 Port Moresby, Papua New Guinea, 4th floor, Pacific MMI Building, Sec 21, Lot 2&amp;3, Champion Parade, Granville, Port Moresby, Papua New Guinea,"
바레인,BH,일반,대사관,주 바레인 대한민국 대사관,26.221415,50.580087,(973)1753-1120,(82)2-3210-0404,080-020-0219,(973)6674-4737,"Villa 401, Road 915, Block 309, Salmaniya, Manama, Kingdom of Bahrain,"
바베이도스,BB,겸임,대사관,주 트리니다드토바고 대한민국 대사관,10.669715,-61.522711,(1)868-622-9081,(82)2-3210-0404,080-020-0219,(1)868-316-5672,"30# Elizabth street, St.Clair, Port of Spain, Trinidad and Tobago,"
바하마,BS,겸임,대사관,주 도미니카공화국 대한민국 대사관,18.45281,-69.960545,(1-809)482-6505,(82)2-3210-0404,080-020-0219,(1-809)383-9091,"Torre Empresarial Forum, Piso 14, Avenida 27 de Febrero No.495, El Millon, Santo Domingo, Republica Dominicana,"
방글라데시,BD,일반,대사관,주 방글라데시 대한민국 대사관,23.798038,90.421481,(880)2-5881-2088,(82)2-3210-0404,080-020-0219,(880)17-5563-9618,"4, Madani Avenue, Baridhara, Dhaka-1212 Bangladesh,"
베냉,BJ,겸임,대사관,주 가나 대한민국 대사관,5.575495,-0.185161,(233)302-771-705,(82)2-3210-0404,080-020-0219,(233)244-321-858,"No.10, Fifth Avenue Extension, Cantonments, P.O.Box GP 13700, Accra, Ghana,"
베네수엘라,VE,일반,대사관,주 베네수엘라 대한민국 대사관,10.491337,-66.861998,(58)212-954-1270,(82)2-3210-0404,080-020-0219,(58)412-309-3247,"Av. Francisco de Miranda, Centro Lido, Torre B, Piso 9, Ofic. 91-92-B, El Rosal, Caracas, Venezuela,"
베트남,VN,일반,대사관,주 베트남 대한민국 대사관,21.067095,105.796723,(84)24-3771-0404,(82)2-3210-0404,080-020-0219,(84)90-402-6126,"SQ4, Do Nhuan, Khu Ngaoi Giao Doan, Xuan Tao, Bac Tu Liem, Hanoi, Vietnam,"
베트남,VN,일반,총영사관,주 다낭 대한민국 총영사관,16.027969,108.237979,(84)23-6356-6100,(82)2-3210-0404,080-020-0219,(84)93-112-0404,"Tang 3-4, Lo A1-2 Chuong Duong, P.Khue My, Q.Ngu Hanh Son, T.P Da Nang, Vietnam"
베트남,VN,일반,총영사관,주 호치민 대한민국 총영사관,10.774473,106.69567,(84)28-3822-5757,(82)2-3210-0404,080-020-0219,(84)93-850-0238,"107 Nguyen Du Street, Districr 1, Hochiminh City, Vietnam,"
벨기에,BE,일반,대사관,주 벨기에 유럽연합 대한민국 대사관,50.796035,4.402728,(32)2-675-5777,(82)2-3210-0404,080-020-0219,(32)476-45-75-06,"Chaussee de la Hulpe 175, 1170 Brussels, Belgium,"
벨라루스,BY,일반,대사관,주 벨라루스 대한민국 대사관,53.910452,27.558342,(375)17-215-0170,(82)2-3210-0404,080-020-0219,(375)29-369-1320,"220002, Minsk, Storozhovskaya str.10,"
벨리즈,BZ,겸임,대사관,주 엘살바도르 대한민국 대사관,13.708722,-89.240969,(503)2263-9145,(82)2-3210-0404,080-020-0219,(503)7481-7401,"Cl, Mirador y 87 Avenida Norte, Edif, Torre Futura ,Nivel 14, Local 05, Complejo WTC,Col, Escalon, San Salvador,El Salvador,"
보스니아헤르체고비나,BA,겸임,대사관,주 크로아티아 대한민국 대사관,45.840064,15.975947,(385)1-4821-282,(82)2-3210-0404,080-020-0219,(385)91-2200-325,"Ksaverska cesta 111/A-B, 10000 Zagreb, Croatia,"
보츠와나,BW,겸임,대사관,주 남아프리카공화국 대한민국 대사관,-25.773293,28.226605,(27)12-460-2508,(82)2-3210-0404,080-020-0219,(27)66-332-5897,"265 Melk Street, Nieuw Muckleneuk, Pretoria 0181, South Africa,"
볼리비아,BO,일반,대사관,주 볼리비아 대한민국 대사관,-16.540091,-68.08616,(591)2-211-0361,(82)2-3210-0404,080-020-0219,(591)7673-3334,"Av. Ballivian Esquina Calle 13 Edificio Torre Lucia Piso 4 y 5,"
부룬디,BI,겸임,대사관,주 르완다 대한민국 대사관,-1.938502,30.10031,(250)252-577-577,(82)2-3210-0404,080-020-0219,(250)780-493-746,"P.O. Box 6404, 34 KG 13 Ave(Golf Course Road), Nyarutarama, Kigali, Rwanda,"
부르키나파소,BF,겸임,대사관,주 코트디부아르 대한민국 대사관,5.331987,-3.996877,(225)2248-6701,(82)2-3210-0404,080-020-0219,(225)8827-3480,"01BP 3950 Abidjan 01, Rue Sainte Marie Lot 18-19, Cocody Sud, Abidjan, Cote d&rsquo;Ivoire,"
부탄,BT,겸임,대사관,주 방글라데시 대한민국 대사관,23.798038,90.421481,(880)2-5881-2088,(82)2-3210-0404,080-020-0219,(880)17-5563-9618,"4, Madani Avenue, Baridhara, Dhaka-1212 Bangladesh,"
북마케도니아,MK,관할,대사관,주 불가리아 대한민국 대사관,42.671014,23.351161,(359)2-971-2181,(82)2-3210-0404,080-020-0219,(359)887-503-270,"2V Srebarna Street MobiArt Building, Floor 4, Sofia, Bulgaria,"
불가리아,BG,일반,대사관,주 불가리아 대한민국 대사관,42.671014,23.351161,(359)2-971-2181,(82)2-3210-0404,080-020-0219,(359)887-503-270,"2V Srebarna Street MobiArt Building, Floor 4, Sofia, Bulgaria,"
브라질,BR,일반,대사관,주 브라질 대한민국 대사관,-15.776487,-47.796623,(55)61-3321-2500,(82)2-3210-0404,080-020-0219,(55)61-99658-2421,"SEN Qd. 801 Lote 14, Asa Norte, Brasilia-DF,"
브라질,BR,일반,총영사관,주 상파울루 대한민국 총영사관,-23.570884,-46.644843,(55)11-3141-1278,(82)2-3210-0404,080-020-0219,(55)11-97188-5194,"Av. paulista, 37, 9 andar, Cerqueira Cesar CEP: 01311-902, Sao Paulo, SP Brasil,"
브루나이,BN,일반,대사관,주 브루나이 대한민국 대사관,4.9208489,114.9577357,(673)233-0248,(82)2-3210-0404,080-020-0219,(673)729-1336,"Lot No 24160, Simpang 336, Diplomatic Enclave, Jalan Kebangsaan, Kampong Kianggeh, Bandar Seri Begawan, Brunei,"
사모아,WS,겸임,대사관,주 뉴질랜드 대한민국 대사관,-41.28572,174.777313,(64)4-473-9073,(82)2-3210-0404,080-020-0219,(64)21-0269-3271,"11th Floor, Harbour Tower, 2 Hunter Street, Wellington 6011, New Zealand,"
사우디아라비아,SA,일반,대사관,주 사우디아라비아 대한민국 대사관,24.683989,46.626642,(966)11-488-2211,(82)2-3210-0404,080-020-0219,(966)50-080-1065,"Diplometic Quarter, P.O.Box 94399, Riyadh 11693, Saudi Arabia,"
사우디아라비아,SA,일반,총영사관,주 젯다 대한민국 총영사관,21.334072,39.093873,(966)12-668-1990,(82)2-3210-0404,080-020-0219,(966)55-668-3432,"P.O.BOX 55503, Jeddah 21544 Kingdom of Saudl Arabia Rawdah Center 2nd, Rawdah District, Jeddah, Kingdom of Saudl Arabia,"
사이프러스,CY,겸임,대사관,주 그리스 대한민국 대사관,37.984663,23.760519,(30)210-698-4080,(82)2-3210-0404,080-020-0219,(30)694-611-7098,"Embassy of the Republic of Korea , Athens Tower A  building , 19th Floor, 2-4 Messogion Avenue, 115 27, Athens, Greece,"
산마리노,SM,겸임,대사관,주 이탈리아 대한민국 대사관,41.927196,12.485185,(39)06-802461,(82)2-3210-0404,080-020-0219,(39)335-185-0499,"Via Barnaba Oriani n. 30, Roma, 00197 Italy,"
상투메프린시페,ST,겸임,대사관,주 가봉 대한민국 대사관,0.477587266,9.393928461,(241)6530-1900,(82)2-3210-0404,080-020-0219,(241)7750-7822,"B.P.2620, Libreville, Gabon,"
세네갈,SN,일반,대사관,주 세네갈 대한민국 대사관,14.695506,-17.467318,(221)33-824-06-72,(82)2-3210-0404,080-020-0219,(221)77-639-5109,"Ambassade de la Republique de Coree, Villa Hamoudy, Rue Aime Cesaire, Fann Residence, B.P.5850, Dakar, Senegal,"
세르비아,RS,일반,대사관,주 세르비아 대한민국 대사관,44.78293,20.45104,(381)11-3674-225,(82)2-3210-0404,080-020-0219,(381)63-108-1397,"MILOSA SAVCICA 4, 11000 Belgrade, Serbia,"
세이셸,SC,겸임,대사관,주 에티오피아 대한민국 대사관,9.051879,38.727486,(251)113-72-81-11,(82)2-3210-0404,080-020-0219,(251)92-217-4741,"Embassy of the Repulic of Korea House No. 856, Kebele 04, Nefas Silk Lafto, Addis Ababa, Ethiopia,"
세인트 루시아,LC,겸임,대사관,주 트리니다드토바고 대한민국 대사관,10.669715,-61.522711,(1)868-622-9081,(82)2-3210-0404,080-020-0219,(1)868-316-5672,"30# Elizabth street, St.Clair, Port of Spain, Trinidad and Tobago,"
세인트 빈센트 그레나딘,VC,겸임,대사관,주 트리니다드토바고 대한민국 대사관,10.669715,-61.522711,(1)868-622-9081,(82)2-3210-0404,080-020-0219,(1)868-316-5672,"30# Elizabth street, St.Clair, Port of Spain, Trinidad and Tobago,"
세인트 키츠 네비스,KN,겸임,대사관,주 도미니카공화국 대한민국 대사관,18.45281,-69.960545,(1-809)482-6505,(82)2-3210-0404,080-020-0219,(1-809)383-9091,"Torre Empresarial Forum, Piso 14, Avenida 27 de Febrero No.495, El Millon, Santo Domingo, Republica Dominicana,"
소말리아,SO,겸임,대사관,주 케냐 대한민국 대사관,-1.270147,36.810002,(254)20-361-5109,(82)2-3210-0404,080-020-0219,(254)708-984-891,"Misha Towers, Westlands Road, Nairobi, Kenya,"
솔로몬제도,SB,겸임,대사관,주 파푸아뉴기니독립국 대한민국 대사관,-9.476991,147.150749,(675)321-5822,(82)2-3210-0404,080-020-0219,(675)7394-6778,"P.O.Box 381 Port Moresby, Papua New Guinea, 4th floor, Pacific MMI Building, Sec 21, Lot 2&amp;3, Champion Parade, Granville, Port Moresby, Papua New Guinea,"
수단,SD,일반,대사관,주 수단 대한민국 대사관,15.501577,32.572596,(249)1-8358-0031,(82)2-3210-0404,080-020-0219,(249)9-1217-2813,"House No.55, Al-Jazira Street 56, Khartoum 2, P.O.Box 2414, Khartoum, Sudan,"
수리남,SR,겸임,대사관,주 베네수엘라 대한민국 대사관,10.491337,-66.861998,(58)212-954-1270,(82)2-3210-0404,080-020-0219,(58)412-309-3247,"Av. Francisco de Miranda, Centro Lido, Torre B, Piso 9, Ofic. 91-92-B, El Rosal, Caracas, Venezuela,"
스리랑카,LK,일반,대사관,주 스리랑카 대한민국 대사관,6.918141,79.847301,(94)11-269-9036,(82)2-3210-0404,080-020-0219,(94)77-332-5676,"No. 98, Dharmapala Mawatha, Colombo 7, Sri Lanka,"
스웨덴,SE,일반,대사관,주 스웨덴 대한민국 대사관,59.332817,18.103148,(46)8-5458-9400,(82)2-3210-0404,080-020-0219,(46)73-330-1616,"Laboratoriegatan 10, P.O.Box 27237, 102 53 Stockholm, Sweden,"
스위스,CH,일반,대사관,주 스위스 대한민국 대사관,46.936967,7.46239,(41)31-356-2444,(82)2-3210-0404,080-020-0219,(41)79-897-4086,"Kalcheggweg 38, P.O.Box 301, 3006 Bern, Switzerland,"
스페인,ES,일반,대사관,주 스페인 대한민국 대사관,40.465724,-3.666792,(34)91-353-2000,(82)2-3210-0404,080-020-0219,(34)648-924-695,"Calle Gonzalez Amigo 15, 28033 Madrid, Spain,"
스페인,ES,일반,총영사관,주 바르셀로나 대한민국 총영사관,41.395953,2.160005,(34)93-487-3153,(82)2-3210-0404,080-020-0219,(34)682-862-431,"Paseo de Gracia 103, 3층, 08008, Barcelona,"
스페인,ES,일반,분관,주 라스팔마스 대한민국 분관,28.120204,-15.424954,(34)928-230-499,(82)2-3210-0404,080-020-0219,(34)629-155-134,"Luis Doreste Silva 60-1, 35004 Las Palmas de Gran Canaria, SPAIN,"
슬로바키아,SK,일반,대사관,주 슬로바키아 대한민국 대사관,48.1423175,17.1145299,(421)2-3307-0711,(82)2-3210-0404,080-020-0219,(421)904-934-053,"Sturova 16, 811 02 Bratislava,"
슬로베니아,SI,겸임,대사관 겸 주 빈 국제기구대표부,주 오스트리아 대한민국 대사관 겸 주 빈 국제기구대표부,48.233009,16.337525,(43)1-478-1991,(82)2-3210-0404,080-020-0219,(43)664-527-0743,"Gregor-Mendel Strasse 25, A-1180 Vienna, Austria,"
시리아,SY,겸임,대사관,주 레바논 대한민국 대사관,33.84007,35.547211,(961)5-922-846,(82)2-3210-0404,080-020-0219,(961)81-007-491,"Bldg.4, Elias Sarkis Road 1209, Yarzeh, Baabda, Lebanon,"
시에라리온,SL,겸임,대사관,주 나이지리아 대한민국 대사관,9.084108,7.49347,(234)810-389-0991,(82)2-3210-0404,080-020-0219,(234)809-998-1726,"No.9 Ovia cresent, Off Pope John Paul Ⅱ street, Off Gana street, Maitama, Abuja,"
싱가포르,SG,일반,대사관,주 싱가포르 대한민국 대사관,1.312146,103.837197,(65)6256-1188,(82)2-3210-0404,080-020-0219,(65)9654-3528,"47 Scotts Road, #08-00 Goldbell Tower, Singapore 228233,"
아랍에미리트,AE,일반,대사관,주 아랍에미리트 대한민국 대사관,24.424774,54.441364,(971)2-441-1520,(82)2-3210-0404,080-020-0219,(971)50-133-7362,"33rd AirPort Road, Abu Dhabi, United Arab Emirates,"
아랍에미리트,AE,일반,총영사관,주 두바이 대한민국 총영사관,25.19898,55.24589,(971)4-344-9200,(82)2-3210-0404,080-020-0219,(971)50-553-2816,"Villa #39, Street 24b, Area 342, Jumeirah2, Dubai, United Arab Emirates,"
아르메니아,AM,겸임,대사관,주 러시아 대한민국 대사관,55.737956,37.57501,(7)495-783-2727,(82)2-3210-0404,080-020-0219,(7)495-783-2727,"St. Plyushchikha 56 bldg 1, Moscow,"
아르헨티나,AR,일반,대사관,주 아르헨티나 대한민국 대사관,-34.579598,-58.405488,(54)11-4802-8865,(82)2-3210-0404,080-020-0219,(54)911-4141-1450,"Av. del Libertador 2395 , C.A.B.A  (1425),  Argentina,"
아이슬란드,IS,겸임,대사관,주 노르웨이 대한민국 대사관,59.919738,10.724114,(47)2254-7090,(82)2-3210-0404,080-020-0219,(47)9026-3544,"Inkognitogata 3 0258 Oslo Norway,"
아이티,HT,겸임,대사관,주 도미니카공화국 대한민국 대사관,18.45281,-69.960545,(1-809)482-6505,(82)2-3210-0404,080-020-0219,(1-809)383-9091,"Torre Empresarial Forum, Piso 14, Avenida 27 de Febrero No.495, El Millon, Santo Domingo, Republica Dominicana,"
아일랜드,IE,일반,대사관,주 아일랜드 대한민국 대사관,53.328858,-6.237402,(353)1-660-8800,(82)2-3210-0404,080-020-0219,(353)87-234-9226,"15 Clyde Road, Ballsbridge, Dublin 4, Ireland,"
아제르바이잔,AZ,일반,대사관,주 아제르바이잔공화국 대한민국 대사관,49.822154,40.393465,(994)12-596-7901,(82)2-3210-0404,080-020-0219,(994)51-877-9607,"Nasimi district, H.Aliyev St., Cross1, House 12, Baku, Azerbaijan,"
아프가니스탄,AF,일반,대사관,주 아프가니스탄 대한민국 대사관,34.535451,69.187373,(93)20-210-2481,(82)2-3210-0404,080-020-0219,(93)70-735-6492,"House No.34, Street No.10, Wazir Akbar Khan, Kabul, Afghanistan,"
안도라,AD,겸임,대사관,주 스페인 대한민국 대사관,40.465724,-3.666792,(34)91-353-2000,(82)2-3210-0404,080-020-0219,(34)648-924-695,"Calle Gonzalez Amigo 15, 28033 Madrid, Spain,"
알바니아,AL,겸임,대사관,주 그리스 대한민국 대사관,37.984663,23.760519,(30)210-698-4080,(82)2-3210-0404,080-020-0219,(30)694-611-7098,"Embassy of the Republic of Korea , Athens Tower A  building , 19th Floor, 2-4 Messogion Avenue, 115 27, Athens, Greece,"
알제리,DZ,일반,대사관,주 알제리 대한민국 대사관,36.755049,3.02583,(213)23-47-28-38,(82)2-3210-0404,080-020-0219,(213)770-11-44-00,"23, Chemin de la Madeleine Chekiken,Hydra, Alger, Algeria,"
앙골라,AO,일반,대사관,주 앙골라 대한민국 대사관,-8.920868,13.202023,(244)222-006-067,(82)2-3210-0404,080-020-0219,(244)938-880-573,"Condominio Zenith, Torre 1, 7&ordm; Andar, Via AL 16, Luanda, Angola,"
앤티가바부다,AG,겸임,대사관,주 도미니카공화국 대한민국 대사관,18.45281,-69.960545,(1-809)482-6505,(82)2-3210-0404,080-020-0219,(1-809)383-9091,"Torre Empresarial Forum, Piso 14, Avenida 27 de Febrero No.495, El Millon, Santo Domingo, Republica Dominicana,"
에리트레아,ER,겸임,대사관,주 수단 대한민국 대사관,15.501577,32.572596,(249)1-8358-0031,(82)2-3210-0404,080-020-0219,(249)9-1217-2813,"House No.55, Al-Jazira Street 56, Khartoum 2, P.O.Box 2414, Khartoum, Sudan,"
에스와티니,SZ,겸임,대사관,주 남아프리카공화국 대한민국 대사관,-25.773293,28.226605,(27)12-460-2508,(82)2-3210-0404,080-020-0219,(27)66-332-5897,"265 Melk Street, Nieuw Muckleneuk, Pretoria 0181, South Africa,"
에스토니아,EE,겸임,대사관,주 핀란드 대한민국 대사관,60.1648551,24.9443138,(358)9-2515-000,(82)2-3210-0404,080-020-0219,(358)40-903-1021,"Erottajankatu 7, 00130 Helsinki, Finland,"
에콰도르,EC,일반,대사관,주 에콰도르 대한민국 대사관,-0.204792,-78.484813,(593)2-352-0874,(82)2-3210-0404,080-020-0219,(593)981-122-191,"Av. 12 de Octubre 1942 y Cordero, Edif. World Trade Center, Torre B, Piso 3, Quito, Ecuador,"
에티오피아,ET,일반,대사관,주 에티오피아 대한민국 대사관,9.051879,38.727486,(251)113-72-81-11,(82)2-3210-0404,080-020-0219,(251)92-217-4741,"Embassy of the Repulic of Korea House No. 856, Kebele 04, Nefas Silk Lafto, Addis Ababa, Ethiopia,"
엘살바도르,SV,일반,대사관,주 엘살바도르 대한민국 대사관,13.708722,-89.240969,(503)2263-9145,(82)2-3210-0404,080-020-0219,(503)7481-7401,"Cl, Mirador y 87 Avenida Norte, Edif, Torre Futura ,Nivel 14, Local 05, Complejo WTC,Col, Escalon, San Salvador,El Salvador,"
영국,GB,일반,대사관,주 영국 대한민국 대사관,51.497987,-0.136127,(44)20-7227-5500,(82)2-3210-0404,080-020-0219,(44)78-7650-6895,"60 Buckingham Gate, London, SW1E 6AJ, United Kingdom,"
예멘,YE,일반,대사관,주 예멘 대한민국 대사관,15.303638,44.191799,(966)11-488-2211,(82)2-3210-0404,080-020-0219,(966)53-717-8300,"P.O.BOX 5005, House No.4(Off Iran Street), Hadda Area, Sana, Republic of Yemen,"
오만,OM,일반,대사관,주 오만 대한민국 대사관,23.604299,58.429706,(968)2469-1490,(82)2-3210-0404,080-020-0219,(968)9944-2892,"Plot.42, Jamiat Al Duwal Al Arabia Street, Muscat, Sultanate of Oman,"
오스트리아,AT,일반,대사관 겸 주 빈 국제기구대표부,주 오스트리아 대한민국 대사관 겸 주 빈 국제기구대표부,48.233009,16.337525,(43)1-478-1991,(82)2-3210-0404,080-020-0219,(43)664-527-0743,"Gregor-Mendel Strasse 25, A-1180 Vienna, Austria,"
온두라스,HN,일반,대사관,주 온두라스 대한민국 대사관,14.086267,-87.186093,(504)2235-5561,(82)2-3210-0404,080-020-0219,(504)9442-4972,"Edificio Plaza Azul 5to piso, Col. Lomas del Guijarro, Tegucigalpa, Honduras,"
요르단,JO,일반,대사관,주 요르단 대한민국 대사관,31.95622,35.89159,(962)6-593-0745,(82)2-3210-0404,080-020-0219,(962)79-750-0358,"P.O.Box 3060, Bahjat Homsi st. 7, Amman 11181, Jordan,"
우간다,UG,일반,대사관,주 우간다 대한민국 대사관,0.320245,32.583,(256)414-500-197,(82)2-3210-0404,080-020-0219,(256)774-478-376,"Plot 14 Ternan Avenue, Kampala, Uganda,"
우루과이,UY,일반,대사관,주 우루과이 대한민국 대사관,-34.904111,-56.136127,(598)2628-9374,(82)2-3210-0404,080-020-0219,(598)94-111-593,"Av. Luis Alberto de Herrera 1248, Torre II, Piso10(World Trade Center), Montevideo, Uruguay,"
우즈베키스탄,UZ,일반,대사관,주 우즈베키스탄 대한민국 대사관,41.301358,69.271215,(998)71-252-3151,(82)2-3210-0404,080-020-0219,(998)91-192-1595,"Afrosiab St.7, Tashkent, Uzbekistan,"
우크라이나,UA,일반,대사관,주 우크라이나 대한민국 대사관,50.453521,30.51192,(380)44-246-3759,(82)2-3210-0404,080-020-0219,(380)95-119-0404,"12, Striletska St., 01001, Kyiv, Ukraine,"
이라크,IQ,일반,대사관,주 이라크 대한민국 대사관,33.287911,44.387676,(964)770-040-5883,(82)2-3210-0404,080-020-0219,(964)770-725-2006,"Villa W5, Dijla Diplomatic Compound Green Zone, Baghdad, Iraq,"
이라크,IQ,일반,분관,주 이라크 대한민국 대사관 아르빌 분관,36.184045,43.974079,(964)750-790-1678,(82)2-3210-0404,080-020-0219,(964)750-445-6098,"Rotana Hotel, Gulan Street, Erbil, Iraq,"
이란,IR,일반,대사관,주 이란 대한민국 대사관,35.764126,51.393378,(98)21-8805-4900,(82)2-3210-0404,080-020-0219,(98)912-159-1158,"No.2, West Daneshvar St, Shaikhbahaei Ave, Vanak Sq, Tehran, Iran,"
이스라엘,IL,일반,대사관,주 이스라엘 대한민국 대사관,32.162399,34.806532,(972)9-959-6826,(82)2-3210-0404,080-020-0219,(972)50-528-8345,"3rd Floor, 4 Hasadnaot St., Herzylia Pituach 46728, Israel,"
이집트,EG,일반,대사관,주 이집트 대한민국 대사관,30.041069,31.215145,(20)2-3761-1234,(82)2-3210-0404,080-020-0219,(20)12-8333-3236,"3 Boulos Hanna Street, Dokki, Cairo, Arab Republic of Egypt,"
이탈리아,IT,일반,대사관,주 이탈리아 대한민국 대사관,41.927196,12.485185,(39)06-802461,(82)2-3210-0404,080-020-0219,(39)335-185-0499,"Via Barnaba Oriani n. 30, Roma, 00197 Italy,"
이탈리아,IT,일반,총영사관,주 밀라노 대한민국 총영사관,45.479247,9.195969,(39)02-2906-2641,(82)2-3210-0404,080-020-0219,(39)329-751-1936,"Piazza Cavour 3, 20121, Milano, Italia,"
인도,IN,일반,대사관,주 인도 대한민국 대사관,28.589967,77.179078,(91)11-4200-7000,(82)2-3210-0404,080-020-0219,(91)99-5359-6008,"9, Chandragupta Marg, Chanakyapuri Extension, New Delhi-110021, India,"
인도,IN,일반,총영사관,주 첸나이 대한민국 총영사관,13.04413,80.270055,(91)44-4061-5500,(82)2-3210-0404,080-020-0219,(91)97-8982-3270,"5th Floor, Bannari Amman Towers, No.29, Dr. Radha Krishnan Road, Mylapore, Chennai 600 004,"
인도,IN,일반,총영사관,주 뭄바이 대한민국 총영사관,18.997992,72.818477,(91)22-6147-7000,(82)2-3210-0404,080-020-0219,(91)96193-22425,"12th Floor Lodha supremus, Dr E Moses road, Worli Naka, Mumbai 400018, INDIA,"
인도네시아,ID,일반,대사관,주 인도네시아 대한민국 대사관,-6.23925,106.832922,(62)21-2967-2580,(82)2-3210-0404,080-020-0219,(62)811-852-446,"Jalan Jenderal Gatot Subroto Kav. 57 Jakarta 12950, Indonesia,"
일본,JP,일반,총영사관,주 니가타 대한민국 총영사관,37.92731,139.061312,(81)25-255-5555,(82)2-3210-0404,080-020-0219,(81)90-8873-8853,"8th Floor, Bandaijima Building, Bandaijima 5-1, Chuo-ku, Niigata, Japan,"
일본,JP,일반,총영사관,주 오사카 대한민국 총영사관,34.681149,135.503924,(81)6-4256-2345,(82)2-3210-0404,080-020-0219,(81)90-3050-0746,"2-5-13, Gomi Bld., Kyutaromachi, Chuo-ku, Osaka-shi, Osaka, Japan,"
일본,JP,일반,총영사관,주 삿포로 대한민국 총영사관,43.06238404,141.338247,(81)11-218-0288,(82)2-3210-0404,080-020-0219,(81)80-1971-0288,"1-4, Nishi 12-Chome, KIta 2-jo, Chuo-ku Sapporo, Japan,"
일본,JP,일반,총영사관,주 센다이 대한민국 총영사관,38.269126,140.870953,(81)22-221-2751,(82)2-3210-0404,080-020-0219,(81)90-9538-0741,"4-3, 1-chome, Kamisugi, Aobaku, Sendai, Japan,"
일본,JP,일반,총영사관,주 요코하마 대한민국 총영사관,35.438042,139.656296,(81)45-621-4531,(82)2-3210-0404,080-020-0219,(81)80-6731-3285,"118, Yamatecho, Naka-ku, Yokohama, Japan,"
일본,JP,일반,대사관,주 일본 대한민국 대사관,35.65156,139.73698,(81)3-3455-2601,(82)2-3210-0404,080-020-0219,(81)70-2153-5454,"1-7-32 Minamiazabu Minato-ku, Tokyo, Japan,"
일본,JP,일반,총영사관,주 후쿠오카 대한민국 총영사관,33.591435,130.362918,(81)92-771-0461,(82)2-3210-0404,080-020-0219,(81)80-8588-2806,"1-1-3 Jigyohama, chuo-ku, Fukuoka, Japan,"
일본,JP,일반,총영사관,주 히로시마 대한민국 총영사관,34.393766,132.47846,(81)82-568-0502,(82)2-3210-0404,080-020-0219,(81)90-8712-8028,"4-22, Higashikouzin-Machi Minami-Ku, Hiroshima-Shi Japan,"
일본,JP,일반,총영사관,주 고베 대한민국 총영사관,34.695403,135.188742,(81)78-221-4853,(82)2-3210-0404,080-020-0219,(81)90-5099-0414,"2-21-5 Nakayamate-Dori, Chuo-ku, kobe, Japan,"
일본,JP,일반,총영사관,주 나고야 대한민국 총영사관,35.166249,136.885369,(81)52-586-9221,(82)2-3210-0404,080-020-0219,(81)80-4221-9500,"1-19-12, Meiekiminami, Nakamura-ku, Nagoya, Japan,"
자메이카,JM,일반,대사관(주킹스턴분관),주 자메이카 대한민국 대사관(주킹스턴분관),18.055754,-76.798232,(1-876)924-2731,(82)2-3210-0404,080-020-0219,(1-876)478-1755,"5 Oakridge Kingston 8 Jamaica W. I.,"
잠비아,ZM,겸임,대사관,주 짐바브웨 대한민국 대사관,-17.831424,31.052597,(263-242)756-541,(82)2-3210-0404,080-020-0219,(263)782-840-787,"3rd floor(Bridge-Red light side), Eastgate Building, 3rd Street/Robert Mugabe Rolad, Harare, Zimbavwe(P.O.Box 4970),"
적도기니,GQ,일반,대사관 말라보 분관,주 적도기니공화국 대한민국 대사관 말라보 분관,3.7535273,8.7069704,(240)333-090-775,(82)2-3210-0404,080-020-0219,(240)222-433-173,"Villa 14, Hotel 3 de Agosto, Malabo, Guinea Ecuatorial,"
조지아,GE,일반,대사관 트빌리시 분관,주 조지아 대한민국 대사관 트빌리시 분관,41.709981,44.79299,(995)322-970-318,(82)2-3210-0404,080-020-0219,(995)599-094-746,"Nugzar Sajia Str. 8, Tbilisi 0179, Georgia,"
중국,CN,일반,총영사관,주 홍콩 대한민국 총영사관,22.279938,114.16408,(852)2529-4141,(82)2-3210-0404,080-020-0219,(852)9731-0092,"5F, Far East Finance Centre, 16 Harcourt Road, Admiralty, Hong Kong,"
중국,CN,일반,대사관,주 중국 대한민국 대사관,39.571951,116.275275,(86)10-8531-0700,(82)2-3210-0404,080-020-0219,(86)186-1173-0089,"No.20, DongfangdongLu Chaoyang District, Beijing, China 100600,"
중국,CN,일반,총영사관,주 청두 대한민국 총영사관,30.656032,104.067034,(86)28-8616-5800,(82)2-3210-0404,080-020-0219,(86)139-8095-6348,"14F Square One, 18 Dongyu Street, Jinjiang District, Chengdu, Sichuan, P.R. China , 610016.,"
중국,CN,일반,출장소,주 다롄 대한민국 출장소,38.922919,121.649229,(86)411-8235-6288,(82)2-3210-0404,080-020-0219,(86)158-4085-1230,"FL Hongyuan building, Renmin Road, Zhongshan district, Dalian, 11600, China,"
중국,CN,일반,총영사관,주 광저우 대한민국 총영사관,23.10168757,113.3197036,(86)20-2919-2999,(82)2-3210-0404,080-020-0219,(86)139-2247-3457,"No. 18, Youlin Road 3, Chigang Consulate Area, Haizhu District, Gangzhou, China 510310,"
중국,CN,일반,총영사관,주 칭다오 대한민국 총영사관,36.316019,120.435135,(86)532-8897-6001,(82)2-3210-0404,080-020-0219,(86)186-6026-5087,"中山省市城春路88,"
중국,CN,일반,총영사관,주 상하이 대한민국 총영사관,31.204412,121.40166,(86)21-6295-5000,(82)2-3210-0404,080-020-0219,(86)138-1650-9503,"60WanShan Road, Shanghai, China 200336,"
중국,CN,일반,총영사관,주 선양 대한민국 총영사관,41.7839708,123.4268609,(86)24-2385-3388,(82)2-3210-0404,080-020-0219,(86)138-0400-6338,"No.37, South 13 Latitude Road, Heping District,. Shenyang, Liaoning, 110003 P.R.China,"
중국,CN,일반,총영사관,주 우한 대한민국 총영사관,30.590266,114.275139,(86)27-8556-1085,(82)2-3210-0404,080-020-0219,(86)159-2624-1112,"4F, Pudong, Develpment Bank B/D, 218, Xinhua-Road, Jianghan-District, Wuhan, 430022 P.R.China,"
중국,CN,일반,총영사관,주 시안 대한민국 총영사관,34.231976,108.90348,(86)29-8835-1001,(82)2-3210-0404,080-020-0219,(86)187-1091-0838,"中國 陝西省 西安市 高新技術産業開發區 科技路33號 高新國際商務中心19層,"
중앙아프리카공화국,CF,겸임,대사관,주 카메룬 대한민국 대사관,3.896586103,11.51830304,(237)2-2220-3756,(82)2-3210-0404,080-020-0219,(237)694-873-695,"House NO. 85, Rosa Park Avenue, Ntougou-Golf, P.O.Box, 13286, Yaounde, Cameroon,"
지부티,DJ,겸임,대사관,주 에티오피아 대한민국 대사관,9.051879,38.727486,(251)113-72-81-11,(82)2-3210-0404,080-020-0219,(251)92-217-4741,"Embassy of the Repulic of Korea House No. 856, Kebele 04, Nefas Silk Lafto, Addis Ababa, Ethiopia,"
짐바브웨,ZW,일반,대사관,주 짐바브웨 대한민국 대사관,-17.831424,31.052597,(263-242)756-541,(82)2-3210-0404,080-020-0219,(263)782-840-787,"3rd floor(Bridge-Red light side), Eastgate Building, 3rd Street/Robert Mugabe Rolad, Harare, Zimbavwe(P.O.Box 4970),"
차드,TD,겸임,대사관,주 카메룬 대한민국 대사관,3.896586103,11.51830304,(237)2-2220-3756,(82)2-3210-0404,080-020-0219,(237)694-873-695,"House NO. 85, Rosa Park Avenue, Ntougou-Golf, P.O.Box, 13286, Yaounde, Cameroon,"
체코,CZ,일반,대사관,주 체코 대한민국 대사관,50.098946,14.41012,(420)234-090-411,(82)2-3210-0404,080-020-0219,(420)725-352-420,"Slavickova 5, 160 00 Praha 6-Bubenec, Czech Republic,"
칠레,CL,일반,대사관,주 칠레 대한민국 대사관,-33.415794,-70.589559,(56)2-2228-4214,(82)2-3210-0404,080-020-0219,(56)9-7430-4546,"Av. Alcatara 74, Las Condes, Santiago, Chile,"
카메룬,CM,일반,대사관,주 카메룬 대한민국 대사관,3.896586103,11.51830304,(237)2-2220-3756,(82)2-3210-0404,080-020-0219,(237)694-873-695,"House NO. 85, Rosa Park Avenue, Ntougou-Golf, P.O.Box, 13286, Yaounde, Cameroon,"
카보베르데,CV,겸임,대사관,주 세네갈 대한민국 대사관,14.695506,-17.467318,(221)33-824-06-72,(82)2-3210-0404,080-020-0219,(221)77-639-5109,"Ambassade de la Republique de Coree, Villa Hamoudy, Rue Aime Cesaire, Fann Residence, B.P.5850, Dakar, Senegal,"
카자흐스탄,KZ,일반,대사관,주 카자흐스탄 대한민국 대사관,51.130734,71.477602,(7)7172-572-100,(82)2-3210-0404,080-020-0219,(7)705-757-9922,"Obagan 5, Nur-Sultan,010009 Kazakhstan,"
카자흐스탄,KZ,일반,총영사관,주 알마티 대한민국 총영사관,43.254579,76.959507,(7)727-291-0490,(82)2-3210-0404,080-020-0219,(7)777-705-6634,"Kaldayakov st. 66A, Bogenbai batyr st. corner, Almaty,"
카타르,QA,일반,대사관,주 카타르 대한민국 대사관,25.3443533,51.5162303,(974)4483-2238,(82)2-3210-0404,080-020-0219,(974)5001-1695,"P.O.BOX 3727, New Diplomatic Area, Al Shabab St., Onaiza-66, Doha, Qatar,"
캄보디아,KH,일반,대사관,주 캄보디아 대한민국 대사관,11.547537,104.937532,(855)23-211-900,(82)2-3210-0404,080-020-0219,(855)92-555-235,"Phum No.14, Sangkat Tonle Bassac, Khan Chamkarmon, Phnom Penh, Cambodia,"
캄보디아,KH,일반,분관,주 시엠립 대한민국 분관,13.376702,103.878029,(855)63-99-0400,(82)2-3210-0404,080-020-0219,(855)17-925-388,"2F, Jasmine Spa Building, Sokha Siem Reap Resort&amp;Convention Center, St. 60, Siem Reap, Kingdom of Cambodia,"
캐나다,CA,일반,대사관,주 캐나다 대한민국 대사관,45.435292,-75.694839,(1)613-244-5010,(82)2-3210-0404,080-020-0219,(1)613-986-0482,"150 Boteler Street, Ottawa, Ontario, K1N 5A6, Canada,"
캐나다,CA,일반,총영사관 겸 주국제민간항공기구대표부,주 몬트리올 대한민국 총영사관 겸 주국제민간항공기구대표부,45.504302,-73.57375,(1)514-845-2555,(82)2-3210-0404,080-020-0219,(1)514-261-4677,"1250 Rene-Levesque Bld. West, Suite 3600(36층), Montreal Quebec, Canada, H3B 4W8,"
캐나다,CA,일반,총영사관,주 토론토 대한민국 총영사관,43.687904,-79.401977,(1)416-920-3809,(82)2-3210-0404,080-020-0219,(1)416-994-4490,"555 Avenue Road, Toronto, Ontario M4V 2J7, Canada,"
캐나다,CA,일반,총영사관,주 밴쿠버 대한민국 총영사관,49.2827,-123.1207,(1)604-681-9581,(82)2-3210-0404,080-020-0219,(1)604-313-0911,"1600, 1090 West Georgia St. Vancouver, BC Canada V6E 3V7,"
케냐,KE,일반,대사관,주 케냐 대한민국 대사관,-1.270147,36.810002,(254)20-361-5109,(82)2-3210-0404,080-020-0219,(254)708-984-891,"Misha Towers, Westlands Road, Nairobi, Kenya,"
코모로,KM,겸임,대사관,주 마다가스카르 대한민국 대사관,-18.884792,47.522183,(261)20-222-2933,(82)2-3210-0404,080-020-0219,(261)32-781-0874,"Immeuble Fitaratra-9eme Etage Nord, Ankorondrano, 101 Antananarivo, Madagascar,"
코소보,XK,겸임,대사관 겸 주 빈 국제기구대표부,주 오스트리아 대한민국 대사관 겸 주 빈 국제기구대표부,48.233009,16.337525,(43)1-478-1991,(82)2-3210-0404,080-020-0219,(43)664-527-0743,"Gregor-Mendel Strasse 25, A-1180 Vienna, Austria,"
코스타리카,CR,일반,대사관,주 코스타리카공화국 대한민국 대사관,9.933085,-84.133784,(506)2588-0852,(82)2-3210-0404,080-020-0219,(506)8410-3145,"400m norte y 200m oeste, del Restaurante Rostipollos, Urbanizacion Trejos Montealegre, San Rafael de Escazu, San Jose, Costa Rica,"
코트디부아르,CI,일반,대사관,주 코트디부아르 대한민국 대사관,5.331987,-3.996877,(225)2248-6701,(82)2-3210-0404,080-020-0219,(225)8827-3480,"01BP 3950 Abidjan 01, Rue Sainte Marie Lot 18-19, Cocody Sud, Abidjan, Cote d&rsquo;Ivoire,"
콜롬비아,CO,일반,대사관,주 콜롬비아 대한민국 대사관,4.676049,-74.044472,(57)1-616-7200,(82)2-3210-0404,080-020-0219,(57)321-976-3511,"Embajada de la Repulica de Corea Calle 94 No.9-39, Bogota, Colombia,"
콩고공화국,CG,겸임,대사관,주 콩고민주공화국 대한민국 대사관,-4.3123424,15.2847223,(243)1-503-5001,(82)2-3210-0404,080-020-0219,(243)85-110-7971,"63 Av De 1a Justice Gombe Kinshasa,"
콩고민주공화국(DR콩고),CD,일반,대사관,주 콩고민주공화국 대한민국 대사관,-4.3123424,15.2847223,(243)1-503-5001,(82)2-3210-0404,080-020-0219,(243)85-110-7971,"63 Av De 1a Justice Gombe Kinshasa,"
쿠바,CU,관할,대사관,주 멕시코 대한민국 대사관,19.416351,-99.213946,(52)55-5202-9866,(82)2-3210-0404,080-020-0219,(52)55-5437-8587,"Lope Diaz de Armendariz No.110, Col. Lomas Virreyes, C.P. 11000, Mexico, D.F.,"
쿠웨이트,KW,일반,대사관,주 쿠웨이트 대한민국 대사관,29.27764,48.061581,(965)2537-8621,(82)2-3210-0404,080-020-0219,(965)9919-3048,"Plot 6, Block 7A Diplomatic Zone 2, Mishref, Kuwait,"
쿡제도,CK,겸임,대사관,주 뉴질랜드 대한민국 대사관,-41.28572,174.777313,(64)4-473-9073,(82)2-3210-0404,080-020-0219,(64)21-0269-3271,"11th Floor, Harbour Tower, 2 Hunter Street, Wellington 6011, New Zealand,"
크로아티아,HR,일반,대사관,주 크로아티아 대한민국 대사관,45.840064,15.975947,(385)1-4821-282,(82)2-3210-0404,080-020-0219,(385)91-2200-325,"Ksaverska cesta 111/A-B, 10000 Zagreb, Croatia,"
키르기즈,KG,일반,대사관,주 키르기즈공화국 대한민국 대사관,42.8425,74.62291667,(996)312-579-771,(82)2-3210-0404,080-020-0219,(996)500-579-773,"35, Str. Akhunbaev, Bishkek, Kyrgyz Republic, 720064,"
키리바시,KI,겸임,대사관,주 피지 대한민국 대사관,-18.140068,178.423532,(679)330-0977,(82)2-3210-0404,080-020-0219,(679)992-2186,"8th Fl., Vanua House, Victoria Parade, Suva, Fiji,"
타이완,TW,일반,대표부,주 타이베이 대한민국 대표부,25.034346,121.560907,(886)2-2758-8320,(82)2-3210-0404,080-020-0219,(886)912-069-230,"Rm. 1506, No.333, Sec. 1, Kee-lung Rd., Taipei, Taiwan,"
타지키스탄,TJ,일반,대사관,주 타지키스탄 대한민국 대사관,38.578525,68.795608,(992)44-600-2114,(82)2-3210-0404,080-020-0219,(992)93-960-2114,"Azazi Str., 17A Ashgabat, Turkmenistan,"
탄자니아,TZ,일반,대사관,주 탄자니아 대한민국 대사관,-6.813547,39.289251,(255)22-211-6086,(82)2-3210-0404,080-020-0219,(255)743-8282-04,"19th floor, Golden Jubilee Towers, Ohio street, City Centre, P.O. Box 1154, Dar es Salaam, Tanzania,"
태국,TH,일반,대사관,주 태국 대한민국 대사관,13.767403,100.577986,(66)2-247-7537,(82)2-3210-0404,080-020-0219,(66)81-914-5803,"23 Thiam-Ruammit Road, Ratchadapisek, Huay-Kwang, Bangkok 10310, Thailand,"
터키,TR,일반,대사관,주 터키 대한민국 대사관,39.89637,32.855855,(90)312-468-4821,(82)2-3210-0404,080-020-0219,(90)533-203-6535,"Alacam Sok. No.5, Cankaya, Ankara 06690, Turkey,"
터키,TR,일반,총영사관,주 이스탄불 대한민국 총영사관,41.06216343,28.97322681,(90)212-368-8368,(82)2-3210-0404,080-020-0219,(90)534-053-3849,"Asker Ocagi Caddesi Suzer Plaza No:6 Kat:4 Elmadag Sisli/stanbul,"
토고,TG,겸임,대사관,주 가나 대한민국 대사관,5.575495,-0.185161,(233)302-771-705,(82)2-3210-0404,080-020-0219,(233)244-321-858,"No.10, Fifth Avenue Extension, Cantonments, P.O.Box GP 13700, Accra, Ghana,"
통가,TO,겸임,대사관,주 뉴질랜드 대한민국 대사관,-41.28572,174.777313,(64)4-473-9073,(82)2-3210-0404,080-020-0219,(64)21-0269-3271,"11th Floor, Harbour Tower, 2 Hunter Street, Wellington 6011, New Zealand,"
투르크메니스탄,TM,일반,대사관,주 투르크메니스탄 대한민국 대사관,37.9335715,58.3957133,(993)12-94-72-86,(82)2-3210-0404,080-020-0219,(993)6585-7173,"Azazi Str., 17A Ashgabat, Turkmenistan,"
투발루,TV,겸임,대사관,주 피지 대한민국 대사관,-18.140068,178.423532,(679)330-0977,(82)2-3210-0404,080-020-0219,(679)992-2186,"8th Fl., Vanua House, Victoria Parade, Suva, Fiji,"
튀니지,TN,일반,대사관,주 튀니지 대한민국 대사관,36.83541,10.1674,(216)71-198-595,(82)2-3210-0404,080-020-0219,(216)99-567-040,"Immeuble BLUE SQUARE, Avenue de la Bourse, les Jardins du Lac 2, 1053 Tunis, Tunisia,"
트리니다드토바고,TT,일반,대사관,주 트리니다드토바고 대한민국 대사관,10.669715,-61.522711,(1)868-622-9081,(82)2-3210-0404,080-020-0219,(1)868-316-5672,"30# Elizabth street, St.Clair, Port of Spain, Trinidad and Tobago,"
파나마,PA,일반,대사관,주 파나마 대한민국 대사관,8.97774,-79.515851,(507)264-8203,(82)2-3210-0404,080-020-0219,(507)6747-0173,"RBS Tower, Piso 14. Calle Ram&oacute;n H. Jurado. Paitilla, corregimiento de San Francisco. Ciudad de Panam&aacute;,"
파라과이,PY,일반,대사관,주 파라과이 대한민국 대사관,-25.299949,-57.580065,(595)21-605-401,(82)2-3210-0404,080-020-0219,(595)981-593-448,"Av. Rep. Argentina Nro. 678 esq. Pacheco, Asuncion, Paraguay,"
파키스탄,PK,일반,대사관,주 파키스탄 대한민국 대사관,33.734637,73.127247,(92)51-227-9380,(82)2-3210-0404,080-020-0219,(92)301-854-6944,"Block 13, Street 29, G-5/4, Diplomatic Enclave Ⅱ, Islamabad, Pakistan,"
파키스탄,PK,일반,분관,주 카라치 대한민국 분관,24.79085,67.054657,(92)21-3585-3950,(82)2-3210-0404,080-020-0219,(92)333-223-7271,"101, 29th Street(Off, Khayaban-e-Mohafiz) Phase-VI, DHA, Karachi, Pakistan,"
파푸아뉴기니,PG,일반,대사관,주 파푸아뉴기니독립국 대한민국 대사관,-9.476991,147.150749,(675)321-5822,(82)2-3210-0404,080-020-0219,(675)7394-6778,"P.O.Box 381 Port Moresby, Papua New Guinea, 4th floor, Pacific MMI Building, Sec 21, Lot 2&amp;3, Champion Parade, Granville, Port Moresby, Papua New Guinea,"
팔라우,PW,겸임,대사관,주 필리핀 대한민국 대사관,14.54077826,121.0552698,(63)2-8856-9210,(82)2-3210-0404,080-020-0219,(63)917-817-5703,"122 Upper Mckinley Road, Mckinley Town Center, Fort Bonifacio, Taguig City 1634,"
페루,PE,일반,대사관,주 페루 대한민국 대사관,-12.091936,-77.048906,(51)1-632-5000,(82)2-3210-0404,080-020-0219,(51)998-787-454,"Calle Guillermo Marconi 165, San Isidro, Lima, Peru,"
포르투갈,PT,일반,대사관,주 포르투갈 대한민국 대사관,38.7371,-9.147366,(351)21-793-7200,(82)2-3210-0404,080-020-0219,(351)91-079-5055,"Av.Miguel Bombarda 36, 7&deg;, 1051-802 Lisboa Portugal,"
폴란드,PL,일반,대사관,주 폴란드 대한민국 대사관,52.21676,21.041807,(48)22-559-2900,(82)2-3210-0404,080-020-0219,(48)887-46-0600,"ul. Szwolezerow 6, 00-464, Warsaw, Poland,"
프랑스,FR,일반,대사관,주 프랑스 대한민국 대사관,48.858052,2.316395,(33)1-4753-0101,(82)2-3210-0404,080-020-0219,(33)6-8028-5396,"125 rue de Grenelle 75007 Paris,"
피지,FJ,일반,대사관,주 피지 대한민국 대사관,-18.140068,178.423532,(679)330-0977,(82)2-3210-0404,080-020-0219,(679)992-2186,"8th Fl., Vanua House, Victoria Parade, Suva, Fiji,"
핀란드,FI,일반,대사관,주 핀란드 대한민국 대사관,60.1648551,24.9443138,(358)9-2515-000,(82)2-3210-0404,080-020-0219,(358)40-903-1021,"Erottajankatu 7, 00130 Helsinki, Finland,"
필리핀,PH,일반,대사관,주 필리핀 대한민국 대사관,14.54077826,121.0552698,(63)2-8856-9210,(82)2-3210-0404,080-020-0219,(63)917-817-5703,"122 Upper Mckinley Road, Mckinley Town Center, Fort Bonifacio, Taguig City 1634,"
필리핀,PH,일반,분관,주 세부 대한민국 분관,10.316248,123.908387,(63)32-231-1516,(82)2-3210-0404,080-020-0219,(63)917-808-3907,"11th Floor, AppleOne-Equicom Tower, Mindanao Avenue corner, Biliran Roadk, Cebu Business Park, Cebu City, 6000 Philippines.,"
헝가리,HU,일반,대사관,주 헝가리 대한민국 대사관,47.51173,19.073067,(36)1-462-3080,(82)2-3210-0404,080-020-0219,(36)30-550-9922,"1062 Budapest, Andrassy ut 109, Hungary,"
호주,AU,일반,대사관,주 호주 대한민국 대사관,-35.30982,149.112711,(61)2-6270-4100,(82)2-3210-0404,080-020-0219,(61)408-815-922,"113 Empire Circuit, Yarralumla ACT 2600, Australia,"
호주,AU,일반,분관,주 멜번 대한민국 분관,-37.854733,144.981904,(61)3-9533-3800,(82)2-3210-0404,080-020-0219,(61)418-435-915,"Level 10, 636 St kilda rd, Melbourne VIC 3004,"
호주,AU,일반,총영사관,주 시드니 대한민국 총영사관,-33.870306,151.206111,(61)2-9210-0200,(82)2-3210-0404,080-020-0219,(61)403-546-058,"Level 10, 44 Market Street Sydney NSW 2000,"
